{"type":"FeatureCollection","features":[
{"type":"Feature","geometry":{"type":"Point","coordinates":[-123.2799792906448,44.572355569530714]},"properties":{"name":"Corvallis","latitude":44.5723555695,"longitude":-123.279979291}},
{"type":"Feature","geometry":{"type":"Point","coordinates":[-123.08694197781847,44.62049216621057]},"properties":{"name":"Albany","latitude":44.6204921662,"longitude":-123.086941978}},
{"type":"Feature","geometry":{"type":"Point","coordinates":[-123.10001611518834,44.0500101919244]},"properties":{"name":"Eugene","latitude":44.0500101919,"longitude":-123.100016115}},
{"type":"Feature","geometry":{"type":"Point","coordinates":[-123.0238967304224,44.928070291211725]},"properties":{"name":"Salem","latitude":44.9280702912,"longitude":-123.02389673}},
{"type":"Feature","geometry":{"type":"Point","coordinates":[-122.68193593213289,45.521969681728024]},"properties":{"name":"Portland","latitude":45.5200238231,"longitude":-122.679990074}}
]}